timestamp_unix,timestamp_iso,pos_x,pos_y,pos_z,vel_x,vel_y,vel_z,roll,pitch,yaw,quat_w,quat_x,quat_y,quat_z,gyro_x,gyro_y,gyro_z,acc_x,acc_y,acc_z,yaw_speed,body_height,mode,gait_type,obstacle_0,obstacle_1,obstacle_2,obstacle_3,battery_soc,battery_current_ma,power_v,power_a
1780536845.1949737,2026-06-03T19:34:05.194975,-1.84191,-3.40615,0.307955,-0.005502,-0.003921,-0.024984,-0.014191,0.046058,1.606552,0.694034,-0.021496,0.010884,0.719539,-0.007457,-0.006392,-0.011718,-0.72664,-0.02873,9.497798,-0.011718,0.320518,0,0,0,0,0,0,,,,
1780536845.2984152,2026-06-03T19:34:05.298418,-1.841803,-3.406155,0.307975,-0.007356,-0.005525,-0.024973,-0.013961,0.046074,1.606524,0.694046,-0.021422,0.010972,0.719528,0,0.006392,0.001065,-0.72664,0.191536,9.455899,0.001065,0.320516,0,0,0,0,0,0,,,,
1780536845.444775,2026-06-03T19:34:05.444777,-1.841886,-3.406187,0.307965,0.003147,-0.000251,-0.023633,-0.014066,0.045889,1.606394,0.694094,-0.021391,0.010872,0.719485,-0.002131,-0.006392,-0.013848,-0.703895,0.026336,9.491813,-0.013848,0.320517,0,0,0,0,0,0,,,,
1780536845.5959363,2026-06-03T19:34:05.595937,-1.841868,-3.406212,0.30797,0.001422,0.012627,-0.02356,-0.014094,0.045941,1.60658,0.694026,-0.021421,0.010878,0.719549,-0.025566,-0.004261,0.001065,-0.627281,0.080206,9.583989,0.001065,0.320512,0,0,0,0,0,0,,,,
1780536845.7446718,2026-06-03T19:34:05.744673,-1.841863,-3.406146,0.307995,0.007004,0.005572,-0.022715,-0.014071,0.046129,1.606371,0.694099,-0.021479,0.010953,0.719476,-0.014914,-0.012783,-0.013848,-0.695516,0.195127,9.543288,-0.013848,0.320508,0,0,0,0,0,0,,,,
1780536845.8946574,2026-06-03T19:34:05.894660,-1.841993,-3.406121,0.307969,0.003548,0.013399,-0.024233,-0.014371,0.046202,1.606274,0.69413,-0.021609,0.010872,0.719443,-0.019175,0.022371,-0.011718,-0.684742,0.015562,9.465476,-0.011718,0.320508,0,0,0,0,0,0,,,,
1780536846.0033488,2026-06-03T19:34:06.003349,-1.841903,-3.406133,0.307968,0.007025,0.004722,-0.02372,-0.014249,0.046125,1.606471,0.694062,-0.02154,0.010887,0.719511,-0.013848,0.006392,-0.007457,-0.658405,0.195127,9.457097,-0.007457,0.320519,0,0,0,0,0,0,60,-1745,29.242949,
1780536846.14451,2026-06-03T19:34:06.144511,-1.841995,-3.406154,0.307956,0.001751,0.005282,-0.024294,-0.014393,0.04607,1.60618,0.694165,-0.021569,0.010819,0.719411,-0.011718,0.006392,-0.012783,-0.688333,0.040701,9.481039,-0.012783,0.320514,0,0,0,0,0,0,60,-1745,29.242949,
1780536846.244555,2026-06-03T19:34:06.244556,-1.841903,-3.406195,0.30796,-0.001011,0.008604,-0.024137,-0.014201,0.045916,1.606382,0.694096,-0.021447,0.010833,0.719481,-0.010653,-0.035154,-0.002131,-0.713472,0.149638,9.482236,-0.002131,0.320522,0,0,0,0,0,0,60,-1745,29.242949,
1780536846.344556,2026-06-03T19:34:06.344557,-1.841959,-3.406197,0.30796,0.0134,-0.004839,-0.02348,-0.014261,0.045853,1.606201,0.694162,-0.021445,0.010791,0.719419,-0.004261,0.021305,-0.006392,-0.717063,0.015562,9.483433,-0.006392,0.320521,0,0,0,0,0,0,60,-1745,29.242949,
1780536846.4945986,2026-06-03T19:34:06.494600,-1.841891,-3.40623,0.307962,0.00166,0.01331,-0.023469,-0.014155,0.045861,1.606436,0.694078,-0.021412,0.01083,0.7195,-0.011718,-0.018109,-0.012783,-0.685939,0.095768,9.524135,-0.012783,0.320514,0,0,0,0,0,0,60,-1745,29.242949,
1780536846.6505075,2026-06-03T19:34:06.650508,-1.841887,-3.406244,0.307957,0.000691,0.008903,-0.023669,-0.014133,0.045848,1.606293,0.69413,-0.021399,0.010834,0.71945,-0.010653,0.012783,-0.007457,-0.657208,0.167594,9.526528,-0.007457,0.320516,0,0,0,0,0,0,60,-1745,29.242949,
1780536846.7946324,2026-06-03T19:34:06.794634,-1.841933,-3.406265,0.307967,-0.003995,0.010723,-0.023758,-0.014171,0.045764,1.606164,0.694177,-0.021381,0.010793,0.719406,-0.021305,0.002131,-0.014914,-0.708684,0.040701,9.476251,-0.014914,0.320512,0,0,0,0,0,0,60,-1745,29.242949,
1780536846.8954048,2026-06-03T19:34:06.895417,-1.841845,-3.406276,0.307961,-0.002984,0.005702,-0.023367,-0.01398,0.04566,1.606082,0.694209,-0.021277,0.010826,0.719377,-0.007457,-0.007457,-0.002131,-0.682347,0.169988,9.496601,-0.002131,0.320514,0,0,0,0,0,0,60,-1745,29.242949,
1780536846.9965858,2026-06-03T19:34:06.996587,-1.84193,-3.406255,0.307958,-0.003868,0.01383,-0.023784,-0.014135,0.045636,1.606085,0.694207,-0.021322,0.010762,0.719379,-0.017044,-0.004261,-0.014914,-0.677559,0.069432,9.528923,-0.014914,0.320519,0,0,0,0,0,0,60,-1746,29.242949,
1780536847.1444793,2026-06-03T19:34:07.144480,-1.841827,-3.406274,0.307972,0.009227,0.001515,-0.023065,-0.013927,0.045597,1.606089,0.694208,-0.021236,0.010824,0.71938,-0.011718,0.005326,-0.002131,-0.725443,0.174777,9.48463,-0.002131,0.320519,0,0,0,0,0,0,60,-1746,29.242949,
1780536847.249969,2026-06-03T19:34:07.249971,-1.841908,-3.406338,0.307961,0.008934,0.009377,-0.023114,-0.014021,0.045464,1.605978,0.694248,-0.02122,0.010745,0.719343,-0.003196,0.014914,-0.024501,-0.664391,0.00838,9.549273,-0.024501,0.320511,0,0,0,0,0,0,60,-1746,29.242949,
1780536847.394919,2026-06-03T19:34:07.394920,-1.841864,-3.406277,0.307953,-0.004753,0.002454,-0.024058,-0.013952,0.045614,1.606024,0.694231,-0.02125,0.010821,0.719357,-0.005326,-0.025566,0.009587,-0.666785,0.166397,9.470264,0.009587,0.320516,0,0,0,0,0,0,60,-1746,29.242949,
1780536847.5448012,2026-06-03T19:34:07.544802,-1.841868,-3.406235,0.307955,-8.1e-05,1.5e-05,-0.02382,-0.013918,0.04563,1.60578,0.694319,-0.021243,0.010841,0.719272,-0.018109,-0.006392,-0.010653,-0.707487,0.099359,9.49301,-0.010653,0.320523,0,0,0,0,0,0,60,-1746,29.242949,
1780536847.6452148,2026-06-03T19:34:07.645216,-1.841866,-3.406262,0.307976,0.000276,0.001567,-0.024001,-0.013963,0.045686,1.606001,0.694238,-0.02128,0.010842,0.719349,-0.007457,-0.010653,0.004261,-0.705092,0.110133,9.500193,0.004261,0.320517,0,0,0,0,0,0,60,-1746,29.242949,
1780536847.7453055,2026-06-03T19:34:07.745307,-1.841914,-3.406233,0.307979,-9.7e-05,-0.005558,-0.023257,-0.014007,0.045662,1.605908,0.694271,-0.021286,0.010819,0.719317,0.006392,0.026632,-0.004261,-0.663194,0.063446,9.496601,-0.004261,0.320517,0,0,0,0,0,0,60,-1746,29.242949,
1780536847.8945482,2026-06-03T19:34:07.894549,-1.841895,-3.406231,0.307987,-0.003642,0.010984,-0.023085,-0.014013,0.045804,1.606197,0.694166,-0.021341,0.010864,0.719417,-0.004261,-0.018109,-0.013848,-0.669179,0.063446,9.488221,-0.013848,0.320514,0,0,0,0,0,0,60,-1746,29.242949,
1780536847.9949553,2026-06-03T19:34:07.994956,-1.8419,-3.4062,0.307962,0.006825,0.004696,-0.023627,-0.013977,0.045667,1.605913,0.69427,-0.021278,0.010832,0.719319,0.001065,0.010653,-0.010653,-0.703895,0.113725,9.554062,-0.010653,0.320518,0,0,0,0,0,0,60,-1723,29.242949,
1780536848.0968935,2026-06-03T19:34:08.096895,-1.841824,-3.40624,0.307959,-0.009168,0.008277,-0.024745,-0.013818,0.04564,1.605997,0.694242,-0.021213,0.010878,0.719347,-0.011718,-0.033023,-0.023436,-0.691924,0.0826,9.482236,-0.023436,0.320521,0,0,0,0,0,0,60,-1723,29.242949,
1780536848.244535,2026-06-03T19:34:08.244537,-1.841845,-3.406231,0.30796,0.008824,0.002698,-0.023814,-0.013836,0.045654,1.605734,0.694336,-0.021223,0.01088,0.719256,-0.002131,0.013848,-0.013848,-0.748188,0.1652,9.495404,-0.013848,0.320516,0,0,0,0,0,0,60,-1723,29.242949,
1780536848.3975358,2026-06-03T19:34:08.397537,-1.841909,-3.406268,0.307957,-0.005469,-0.000253,-0.023851,-0.013952,0.045529,1.605878,0.694284,-0.021219,0.010793,0.719307,0.002131,-0.017044,-0.005326,-0.702698,-0.010774,9.491813,-0.005326,0.32052,0,0,0,0,0,0,60,-1723,29.242949,
1780536848.5445933,2026-06-03T19:34:08.544595,-1.8418,-3.40625,0.307966,0.001232,0.002853,-0.023994,-0.013715,0.045633,1.605981,0.694249,-0.021175,0.010913,0.719341,-0.010653,0.007457,-0.008522,-0.70629,0.166397,9.471462,-0.008522,0.320518,0,0,0,0,0,0,60,-1723,29.242949,
1780536848.694609,2026-06-03T19:34:08.694611,-1.841831,-3.406336,0.307949,0.001853,0.005132,-0.024263,-0.013756,0.045357,1.605789,0.69432,-0.021089,0.010805,0.719276,-0.012783,0.02024,0,-0.703895,0.140061,9.417592,0,0.320515,0,0,0,0,0,0,60,-1723,29.242949,
1780536848.8446033,2026-06-03T19:34:08.844604,-1.841931,-3.406308,0.307929,-0.004244,0.016517,-0.024379,-0.014003,0.045363,1.605864,0.694291,-0.021177,0.010717,0.719303,-0.005326,-0.02024,-0.021305,-0.667982,0.002394,9.466674,-0.021305,0.32052,0,0,0,0,0,0,60,-1723,29.242949,
1780536848.994581,2026-06-03T19:34:08.994582,-1.841877,-3.406253,0.30793,0.002257,0.020415,-0.024581,-0.013943,0.045545,1.605763,0.694326,-0.021221,0.010803,0.719267,-0.022371,0.018109,-0.011718,-0.645237,0.226252,9.495404,-0.011718,0.320517,0,0,0,0,0,0,60,-1780,29.242949,
1780536849.0965464,2026-06-03T19:34:09.096547,-1.841954,-3.406255,0.307953,0.010373,-0.001953,-0.023227,-0.014093,0.045492,1.605546,0.694403,-0.021253,0.010733,0.719193,0.006392,-0.013848,-0.019175,-0.724246,-0.005986,9.520543,-0.019175,0.32052,0,0,0,0,0,0,60,-1780,29.242949,
1780536849.2444868,2026-06-03T19:34:09.244488,-1.841899,-3.406316,0.307967,0.006931,0.011986,-0.023049,-0.014003,0.045447,1.605802,0.694312,-0.021207,0.010747,0.719281,-0.015979,0.013848,-0.004261,-0.673968,0.161609,9.448717,-0.004261,0.320514,0,0,0,0,0,0,60,-1780,29.242949,
1780536849.3450873,2026-06-03T19:34:09.345093,-1.841976,-3.406203,0.307958,-0.003234,-0.000552,-0.023722,-0.014115,0.045721,1.605598,0.694381,-0.021343,0.010804,0.71921,0.003196,-0.012783,0.001065,-0.679953,0.07422,9.488221,0.001065,0.320514,0,0,0,0,0,0,60,-1780,29.242949,
1780536849.4946973,2026-06-03T19:34:09.494698,-1.841935,-3.406212,0.307971,0.003004,0.001159,-0.023691,-0.014003,0.045727,1.605517,0.694411,-0.021306,0.010847,0.719181,-0.009587,0.014914,-0.021305,-0.654814,0.009577,9.489418,-0.021305,0.320518,0,0,0,0,0,0,60,-1780,29.242949,
1780536849.5947707,2026-06-03T19:34:09.594772,-1.841906,-3.406161,0.307977,0.012048,-0.003701,-0.02305,-0.013876,0.045835,1.605386,0.694459,-0.0213,0.010932,0.719134,0.004261,0.037284,-0.017044,-0.729034,0.061052,9.455899,-0.017044,0.320517,0,0,0,0,0,0,60,-1780,29.242949,
1780536849.744651,2026-06-03T19:34:09.744652,-1.841915,-3.406213,0.307964,-0.002363,0.012389,-0.024043,-0.013866,0.045635,1.605404,0.694455,-0.021225,0.010866,0.719141,-0.023436,-0.001065,-0.021305,-0.699107,0.046687,9.440337,-0.021305,0.320512,0,0,0,0,0,0,60,-1780,29.242949,
1780536849.895505,2026-06-03T19:34:09.895506,-1.841831,-3.406188,0.307972,-0.001566,0.003944,-0.023883,-0.013703,0.04569,1.605451,0.694439,-0.021188,0.010943,0.719157,-0.012783,-0.012783,-0.018109,-0.727837,0.162806,9.524135,-0.018109,0.320519,0,0,0,0,0,0,60,-1780,29.242949,
1780536850.0444956,2026-06-03T19:34:10.044496,-1.841891,-3.406235,0.30794,-0.014946,0.003709,-0.025092,-0.013782,0.045537,1.605167,0.694542,-0.021159,0.010865,0.719059,-0.013848,0.007457,-0.011718,-0.758962,0.087388,9.506178,-0.011718,0.320517,0,0,0,0,0,0,60,-1737,29.251804,
1780536850.1504598,2026-06-03T19:34:10.150461,-1.841857,-3.406221,0.307967,0.013763,0.009324,-0.02338,-0.013771,0.045639,1.605338,0.694479,-0.021193,0.010902,0.719118,-0.004261,0.008522,-0.003196,-0.672771,0.160412,9.485827,-0.003196,0.32052,0,0,0,0,0,0,60,-1737,29.251804,
1780536850.2948089,2026-06-03T19:34:10.294810,-1.84191,-3.406184,0.307969,0.011646,-0.001527,-0.022654,-0.013865,0.045654,1.605153,0.694545,-0.02123,0.010876,0.719054,-0.002131,0.013848,-0.001065,-0.721852,0.159214,9.55047,-0.001065,0.320522,0,0,0,0,0,0,60,-1737,29.251804,
1780536850.444756,2026-06-03T19:34:10.444757,-1.841901,-3.406206,0.307954,-0.00623,0.010097,-0.024474,-0.013757,0.04566,1.605286,0.694498,-0.021195,0.010915,0.7191,-0.006392,-0.006392,-0.011718,-0.719458,0.035913,9.49301,-0.011718,0.320517,0,0,0,0,0,0,60,-1737,29.251804,
1780536850.5459812,2026-06-03T19:34:10.545982,-1.841846,-3.406109,0.308006,0.010632,0.007583,-0.022632,-0.013646,0.045962,1.60525,0.694509,-0.021265,0.011061,0.719085,-0.018109,0.029827,-0.010653,-0.65242,0.129287,9.524135,-0.010653,0.320519,0,0,0,0,0,0,60,-1737,29.251804,
1780536850.6950247,2026-06-03T19:34:10.695029,-1.841908,-3.406163,0.307968,-0.012119,0.004282,-0.02501,-0.013688,0.045731,1.605163,0.694542,-0.021196,0.010966,0.719056,-0.005326,-0.015979,-0.014914,-0.705092,-0.003591,9.485827,-0.014914,0.320518,0,0,0,0,0,0,60,-1737,29.251804,
1780536850.8448498,2026-06-03T19:34:10.844852,-1.841856,-3.406158,0.307964,0.001175,0.011835,-0.024335,-0.013607,0.045724,1.605367,0.69447,-0.021167,0.010991,0.719127,-0.005326,0.011718,0.006392,-0.64404,0.061052,9.466674,0.006392,0.320523,0,0,0,0,0,0,60,-1737,29.251804,
1780536850.9951122,2026-06-03T19:34:10.995113,-1.841815,-3.406187,0.307962,0.006783,0.007001,-0.024288,-0.013595,0.045731,1.605222,0.694522,-0.021164,0.010999,0.719076,-0.004261,0,-0.008522,-0.724246,0.162806,9.485827,-0.008522,0.320513,0,0,0,0,0,0,60,-1764,29.242949,
1780536851.1446168,2026-06-03T19:34:11.144618,-1.841929,-3.406134,0.30796,0.005759,-0.001963,-0.024426,-0.01384,0.045809,1.605295,0.694492,-0.021278,0.010937,0.719102,-0.011718,0.004261,-0.017044,-0.738611,0.027533,9.478644,-0.017044,0.320515,0,0,0,0,0,0,60,-1764,29.242949,
1780536851.2948976,2026-06-03T19:34:11.294899,-1.841857,-3.406168,0.307967,0.01501,0.009102,-0.022942,-0.013679,0.045714,1.605547,0.694404,-0.021189,0.010959,0.71919,-0.02024,0.037284,-0.005326,-0.7434,0.147243,9.520543,-0.005326,0.32052,0,0,0,0,0,0,60,-1764,29.242949,
1780536851.4443007,2026-06-03T19:34:11.444302,-1.84189,-3.406153,0.30796,0.006052,0.010434,-0.024335,-0.013737,0.045827,1.605292,0.694494,-0.021248,0.01098,0.719101,-0.012783,0.003196,0.001065,-0.694318,0.178368,9.454702,0.001065,0.320518,0,0,0,0,0,0,60,-1764,29.242949,
1780536851.5447638,2026-06-03T19:34:11.544768,-1.841909,-3.406158,0.307959,0.001566,0.003125,-0.024278,-0.013747,0.045739,1.60546,0.694435,-0.021221,0.010944,0.71916,-0.004261,0.010653,-0.004261,-0.720655,0.029928,9.479841,-0.004261,0.320522,0,0,0,0,0,0,60,-1764,29.242949,
1780536851.64495,2026-06-03T19:34:11.644953,-1.8419,-3.406186,0.307951,0.008116,-0.004168,-0.024336,-0.013748,0.045642,1.605303,0.694492,-0.021186,0.010912,0.719106,-0.007457,0.005326,-0.012783,-0.640449,0.104148,9.428367,-0.012783,0.32052,0,0,0,0,0,0,60,-1764,29.242949,
1780536851.794453,2026-06-03T19:34:11.794456,-1.841937,-3.406287,0.307943,0.006928,0.010868,-0.023802,-0.013877,0.045418,1.605481,0.694429,-0.021151,0.010786,0.719169,-0.022371,0.037284,-0.009587,-0.670376,0.047884,9.509769,-0.009587,0.320514,0,0,0,0,0,0,60,-1764,29.242949,
1780536851.8946588,2026-06-03T19:34:11.894660,-1.841895,-3.406267,0.307932,0.003447,0.001614,-0.024584,-0.01379,0.045382,1.605342,0.69448,-0.021107,0.010806,0.719121,-0.019175,-0.012783,-0.005326,-0.727837,0.132878,9.481039,-0.005326,0.320519,0,0,0,0,0,0,60,-1764,29.242949,
1780536852.045108,2026-06-03T19:34:12.045110,-1.841947,-3.406255,0.307925,0.007762,0.001109,-0.025111,-0.01394,0.045521,1.605535,0.694408,-0.02121,0.010799,0.719188,-0.003196,0.022371,0.001065,-0.693121,-0.019154,9.5385,0.001065,0.320518,0,0,0,0,0,0,60,-1731,29.242949,
1780536852.19447,2026-06-03T19:34:12.194471,-1.841913,-3.406202,0.307945,0.00358,0.006431,-0.024363,-0.013831,0.045677,1.605414,0.694451,-0.021228,0.010893,0.719144,-0.008522,0.005326,-0.006392,-0.670376,0.147243,9.504981,-0.006392,0.320516,0,0,0,0,0,0,60,-1731,29.242949,
1780536852.2955463,2026-06-03T19:34:12.295547,-1.842014,-3.406177,0.307947,0.006104,0.011601,-0.023745,-0.014057,0.045754,1.605248,0.694508,-0.021333,0.01084,0.719087,-0.02024,0.02024,-0.012783,-0.664391,0.007183,9.563639,-0.012783,0.320511,0,0,0,0,0,0,60,-1731,29.242949,
1780536852.3960078,2026-06-03T19:34:12.396009,-1.841922,-3.406151,0.307949,0.007972,0.001456,-0.023867,-0.0139,0.045753,1.605411,0.69445,-0.021279,0.010894,0.719144,-0.010653,-0.012783,0.001065,-0.714669,0.199916,9.51336,0.001065,0.32052,0,0,0,0,0,0,60,-1731,29.242949,
1780536852.4990547,2026-06-03T19:34:12.499055,-1.842008,-3.406246,0.307961,-0.005047,0.006278,-0.024369,-0.014024,0.045567,1.605388,0.694459,-0.021255,0.010786,0.719137,0.008522,-0.015979,-0.014914,-0.708684,0.039504,9.39365,-0.014914,0.320517,0,0,0,0,0,0,60,-1731,29.242949,
1780536852.6445518,2026-06-03T19:34:12.644553,-1.841941,-3.406205,0.307939,0.013022,0.002917,-0.024102,-0.013948,0.045618,1.605276,0.6945,-0.021246,0.010832,0.719098,-0.004261,0.02024,-0.012783,-0.705092,0.148441,9.436746,-0.012783,0.32052,0,0,0,0,0,0,60,-1731,29.242949,
1780536852.7449656,2026-06-03T19:34:12.744968,-1.841988,-3.406229,0.307946,0.008283,-0.010992,-0.023497,-0.013976,0.045528,1.605124,0.694555,-0.021223,0.010792,0.719046,-0.002131,-0.006392,-0.015979,-0.700304,-0.015562,9.506178,-0.015979,0.320519,0,0,0,0,0,0,60,-1731,29.242949,
1780536852.895024,2026-06-03T19:34:12.895026,-1.841904,-3.406195,0.307963,0.004936,0.016015,-0.023607,-0.013781,0.045684,1.605241,0.694514,-0.021212,0.010915,0.719084,-0.019175,0.004261,-0.011718,-0.702698,0.120907,9.477448,-0.011718,0.320517,0,0,0,0,0,0,60,-1731,29.242949,
1780536853.0460813,2026-06-03T19:34:13.046082,-1.841946,-3.406186,0.307959,0.00399,0.001673,-0.023595,-0.013847,0.045648,1.604955,0.694616,-0.021221,0.010882,0.718985,-0.003196,0,-0.006392,-0.73502,0.104148,9.475053,-0.006392,0.320513,0,0,0,0,0,0,60,-1714,29.242949,
1780536853.194391,2026-06-03T19:34:13.194392,-1.841974,-3.40619,0.307965,-0.003706,-0.001839,-0.024407,-0.013855,0.045738,1.604996,0.6946,-0.021256,0.01091,0.718999,-0.008522,0.011718,-0.008522,-0.65242,0.03711,9.458294,-0.008522,0.320514,0,0,0,0,0,0,60,-1714,29.242949,
1780536853.2960289,2026-06-03T19:34:13.296030,-1.841906,-3.406128,0.307968,0.002091,0.011133,-0.023789,-0.013678,0.045796,1.604928,0.694626,-0.021215,0.010995,0.718974,-0.007457,0.002131,-0.002131,-0.72664,0.102951,9.507375,-0.002131,0.320515,0,0,0,0,0,0,60,-1714,29.242949,
1780536853.4446356,2026-06-03T19:34:13.444637,-1.841978,-3.406132,0.307981,0.006408,0.015746,-0.023229,-0.013808,0.045807,1.604871,0.694645,-0.021264,0.010952,0.718955,-0.014914,-0.005326,-0.011718,-0.72664,0.025139,9.519346,-0.011718,0.320517,0,0,0,0,0,0,60,-1714,29.242949,
1780536853.5446908,2026-06-03T19:34:13.544695,-1.841864,-3.406155,0.307979,0.007087,0.007358,-0.023925,-0.013591,0.045765,1.60498,0.694609,-0.021174,0.011014,0.718992,-0.019175,-0.003196,-0.001065,-0.711078,0.195127,9.464279,-0.001065,0.320515,0,0,0,0,0,0,60,-1714,29.242949,
1780536853.6449625,2026-06-03T19:34:13.644963,-1.841941,-3.406206,0.307975,0.008626,0.001393,-0.023498,-0.013695,0.045603,1.604895,0.69464,-0.021151,0.010921,0.718964,-0.014914,0.02024,-0.02024,-0.667982,0.023942,9.425972,-0.02024,0.320519,0,0,0,0,0,0,60,-1714,29.242949,
1780536853.7943547,2026-06-03T19:34:13.794356,-1.841888,-3.406105,0.307964,0.010609,0.009256,-0.023987,-0.013675,0.045912,1.60507,0.694574,-0.021256,0.011034,0.719023,-0.029827,0.010653,-0.002131,-0.634463,0.190339,9.544485,-0.002131,0.320519,0,0,0,0,0,0,60,-1714,29.242949,
1780536853.894531,2026-06-03T19:34:13.894532,-1.84201,-3.406115,0.307985,0.013353,0.002786,-0.022847,-0.013879,0.045811,1.60478,0.694677,-0.021289,0.010929,0.718924,-0.011718,0.028762,-0.006392,-0.748188,0.026336,9.53012,-0.006392,0.32052,0,0,0,0,0,0,60,-1714,29.242949,
1780536853.9965363,2026-06-03T19:34:13.996537,-1.841921,-3.406129,0.308002,0.005204,0.011478,-0.02278,-0.013765,0.045839,1.605046,0.694582,-0.021261,0.010977,0.719015,-0.023436,0.009587,0.002131,-0.715866,0.172383,9.496601,0.002131,0.32052,0,0,0,0,0,0,60,-1731,29.242949,
1780536854.144649,2026-06-03T19:34:14.144651,-1.842056,-3.406015,0.307985,0.002109,-0.003961,-0.023264,-0.014097,0.046043,1.604803,0.694664,-0.021449,0.010931,0.718931,-0.004261,0.011718,-0.018109,-0.693121,0.023942,9.508572,-0.018109,0.320527,0,0,0,0,0,0,60,-1731,29.242949,
1780536854.2947102,2026-06-03T19:34:14.294712,-1.841952,-3.406032,0.307997,0.004134,0.01641,-0.023305,-0.013809,0.046103,1.605053,0.694577,-0.021371,0.011053,0.719016,-0.008522,0.001065,-0.017044,-0.670376,0.117316,9.465476,-0.017044,0.32052,0,0,0,0,0,0,60,-1731,29.242949,
1780536854.444326,2026-06-03T19:34:14.444327,-1.841903,-3.40607,0.308006,0.004246,0.005497,-0.023666,-0.013684,0.046099,1.604919,0.694626,-0.021326,0.011098,0.718969,0.004261,0.017044,-0.02024,-0.736217,0.258574,9.50139,-0.02024,0.320513,0,0,0,0,0,0,60,-1731,29.242949,
1780536854.544525,2026-06-03T19:34:14.544526,-1.84197,-3.406125,0.307995,0.005242,0.008491,-0.023673,-0.013771,0.046064,1.604858,0.694647,-0.021343,0.011055,0.718949,-0.013848,0.002131,-0.013848,-0.647632,0.068235,9.481039,-0.013848,0.320505,0,0,0,0,0,0,60,-1731,29.242949,
1780536854.694391,2026-06-03T19:34:14.694392,-1.841945,-3.406108,0.307986,0.00277,0.003698,-0.023814,-0.013795,0.045986,1.604888,0.694637,-0.021323,0.011019,0.71896,-0.009587,-0.002131,-0.011718,-0.673968,0.21069,9.560047,-0.011718,0.320517,0,0,0,0,0,0,60,-1731,29.242949,
1780536854.794603,2026-06-03T19:34:14.794607,-1.842064,-3.406138,0.307966,-0.012052,0.001293,-0.025044,-0.01406,0.045856,1.604791,0.694671,-0.021368,0.01088,0.718928,-0.012783,-0.013848,-0.007457,-0.669179,-0.010774,9.487024,-0.007457,0.320519,0,0,0,0,0,0,60,-1731,29.242949,
1780536854.9444098,2026-06-03T19:34:14.944412,-1.842012,-3.406113,0.30797,0.000573,0.007978,-0.023896,-0.014039,0.045892,1.604871,0.694642,-0.021374,0.010899,0.718956,-0.005326,-0.013848,-0.005326,-0.677559,0.162806,9.515755,-0.005326,0.320515,0,0,0,0,0,0,60,-1736,29.234095,
1780536855.0446298,2026-06-03T19:34:15.044631,-1.8421,-3.406111,0.307973,0.007131,0.004177,-0.023247,-0.014201,0.045934,1.604816,0.694659,-0.021446,0.010855,0.718937,0.001065,-0.002131,-0.018109,-0.708684,0.002394,9.526528,-0.018109,0.320514,0,0,0,0,0,0,60,-1736,29.234095,
1780536855.1450467,2026-06-03T19:34:15.145049,-1.842025,-3.406109,0.307974,0.017022,0.012381,-0.022991,-0.014098,0.045973,1.605063,0.694571,-0.021425,0.010903,0.719022,-0.011718,0.013848,0.004261,-0.696713,0.227449,9.51336,0.004261,0.320517,0,0,0,0,0,0,60,-1736,29.234095,
1780536855.2946606,2026-06-03T19:34:15.294662,-1.842072,-3.406111,0.30795,0.00524,0.007925,-0.024614,-0.014133,0.045857,1.60502,0.694588,-0.021395,0.010851,0.719008,-0.009587,0.006392,-0.001065,-0.729034,0.02873,9.525331,-0.001065,0.320517,0,0,0,0,0,0,60,-1736,29.234095,
1780536855.4451246,2026-06-03T19:34:15.445126,-1.842043,-3.406123,0.307963,0.006746,0.004375,-0.023719,-0.014069,0.045856,1.605069,0.694571,-0.021373,0.010873,0.719025,-0.015979,0.041545,-0.015979,-0.70629,0.038307,9.554062,-0.015979,0.320513,0,0,0,0,0,0,60,-1736,29.234095,
1780536855.5944474,2026-06-03T19:34:15.594449,-1.841993,-3.406168,0.307949,0.003557,0.012688,-0.024125,-0.013956,0.045761,1.605031,0.694586,-0.021299,0.010881,0.719012,-0.013848,0.001065,-0.004261,-0.661997,0.198719,9.49301,-0.004261,0.320513,0,0,0,0,0,0,60,-1736,29.234095,
1780536855.6948547,2026-06-03T19:34:15.694858,-1.842058,-3.406166,0.307969,-0.011172,0.009951,-0.023992,-0.014077,0.045837,1.605196,0.694525,-0.021369,0.010862,0.719069,-0.014914,-0.012783,-0.017044,-0.725443,-0.031125,9.54209,-0.017044,0.320508,0,0,0,0,0,0,60,-1736,29.234095,
1780536855.8443432,2026-06-03T19:34:15.844345,-1.841972,-3.406128,0.307975,0.009868,0.001112,-0.023458,-0.01394,0.045884,1.605309,0.694485,-0.02134,0.010927,0.719107,-0.011718,-0.007457,-0.017044,-0.68115,0.158017,9.453506,-0.017044,0.320516,0,0,0,0,0,0,60,-1736,29.234095,
1780536855.9472473,2026-06-03T19:34:15.947249,-1.842065,-3.406119,0.307958,0.005071,0.00187,-0.023913,-0.014061,0.045783,1.605108,0.694557,-0.021344,0.01085,0.719039,-0.005326,0.002131,-0.007457,-0.678756,0.052672,9.500193,-0.007457,0.32052,0,0,0,0,0,0,60,-1725,29.234095,
1780536856.094597,2026-06-03T19:34:16.094598,-1.842009,-3.40617,0.30796,0.003255,0.009912,-0.023507,-0.013994,0.04574,1.60531,0.694486,-0.021306,0.010857,0.719109,-0.015979,0.015979,0.002131,-0.661997,0.161609,9.469068,0.002131,0.320512,0,0,0,0,0,0,60,-1725,29.234095,
1780536856.2451072,2026-06-03T19:34:16.245109,-1.842045,-3.40609,0.307975,0.006457,0.00845,-0.02349,-0.014075,0.045837,1.605095,0.694561,-0.021369,0.010864,0.719034,-0.008522,0.001065,-0.008522,-0.70629,0.136469,9.500193,-0.008522,0.320522,0,0,0,0,0,0,60,-1725,29.234095,
1780536856.3949256,2026-06-03T19:34:16.394928,-1.842098,-3.406155,0.307968,-0.003951,0.004586,-0.024473,-0.014157,0.045827,1.605088,0.694563,-0.021393,0.010831,0.719032,0.001065,-0.001065,-0.009587,-0.645237,0.013168,9.483433,-0.009587,0.320509,0,0,0,0,0,0,60,-1725,29.234095,
